_id,lat_x,long_x,id,nombre_x,codigo_x,redesid_x,_id_x,lat_y,long_y,id_x,nombre_y,codigo_y,redesid_y,_id_y,city,date,estacionesid,fecha,hora,id_y,parametro,estado,validoorig,valororig,pronostico
5cccf5bee2705c1932820582,21.88378056,-102.295825,33,Centro,CEN,30,5cccf5bee2705c1932820582,21.88378056,-102.295825,33,Centro,CEN,30,5cccec88e2705c19326823a7,Aguascalientes,2018-01-30T00:00:00.000Z,33,1/30/18,0,33SO218013000,SO2,Aguascalientes,1,1.2198,0
5cccf5bee2705c193282058a,32.4975,-116.9769444,47,La Mesa,SPABC03,35,5cccf5bee2705c193282058a,32.4975,-116.9769444,47,La Mesa,SPABC03,35,5cccecb5e2705c19326dd2e9,Tijuana,2018-01-30T00:00:00.000Z,47,1/30/18,0,47SO218013000,SO2,Baja California,1,3.15E-06,0
5cccf5bee2705c193282058c,28.632775,-106.0388669,53,SUR,SUR,38,5cccf5bee2705c193282058c,28.632775,-106.0388669,53,SUR,SUR,38,5cccecbbe2705c19326e8097,Chihuahua,2018-01-30T00:00:00.000Z,53,1/30/18,0,53SO218013000,SO2,Chihuahua -Estatal,1,0.0011,0
5cccf5bee2705c193282058d,28.65222778,-106.0853583,54,Centro,CEN,38,5cccf5bee2705c193282058d,28.65222778,-106.0853583,54,Centro,CEN,38,5cccecbfe2705c19326ef416,Chihuahua,2018-01-30T00:00:00.000Z,54,1/30/18,0,54SO218013000,SO2,Chihuahua -Estatal,1,0.0101,0.307750787
5cccf5bee2705c1932820590,19.26212778,-103.7240333,57,Tecnologico,TEC,41,5cccf5bee2705c1932820590,19.26212778,-103.7240333,57,Tecnologico,TEC,41,5ccceccde2705c1932704685,Colima,2018-01-30T00:00:00.000Z,57,1/30/18,0,57SO218013000,SO2,Colima,1,0.004735476,0.003984656
5cccf5bee2705c1932820593,24.02677778,-104.692975,60,SRNyMA,SRN,42,5cccf5bee2705c1932820593,24.02677778,-104.692975,60,SRNyMA,SRN,42,5cccecdce2705c193271f8ca,Durango,2018-01-30T00:00:00.000Z,60,1/30/18,0,60SO218013000,SO2,Durango,1,0.0087784,0.006178469
5cccf5bee2705c1932820594,25.55122222,-103.5025278,65,Campestre,CAM,43,5cccf5bee2705c1932820594,25.55122222,-103.5025278,65,Campestre,CAM,43,5cccece0e2705c1932726359,Gomez Palacio,2018-01-30T00:00:00.000Z,65,1/30/18,0,65SO218013000,SO2,Durango,1,0.10828,0.032973469
5cccf5bee2705c1932820596,20.5175,-100.8155556,68,Policia,POL,45,5cccf5bee2705c1932820596,20.5175,-100.8155556,68,Policia,POL,45,5cccece4e2705c193272e514,Celaya,2018-01-30T00:00:00.000Z,68,1/30/18,0,68SO218013000,SO2,Guanajuato,1,0.00206,0.030963469
5cccf5bee2705c1932820599,20.6925,-101.365,71,Sec. Oficial,SEC,46,5cccf5bee2705c1932820599,20.6925,-101.365,71,Sec. Oficial,SEC,46,5cccecf2e2705c1932746f74,Irapuato,2018-01-30T00:00:00.000Z,71,1/30/18,0,71SO218013000,SO2,Guanajuato,1,0.01045,0.0323921
5cccf5bee2705c193282059b,20.65805556,-101.3488889,73,Teodula,TEO,46,5cccf5bee2705c193282059b,20.65805556,-101.3488889,73,Teodula,TEO,46,5cccecfee2705c193275c81c,Irapuato,2018-01-30T00:00:00.000Z,73,1/30/18,0,73SO218013000,SO2,Guanajuato,1,0.010602,0.032848
5cccf5bee2705c193282059c,21.10305556,-101.6361111,74,CICEG - Bomberos,CC,47,5cccf5bee2705c193282059c,21.10305556,-101.6361111,74,CICEG - Bomberos,CC,47,5ccced04e2705c19327673d9,Leon,2018-01-30T00:00:00.000Z,74,1/30/18,0,74SO218013000,SO2,Guanajuato,1,0.0042002,0.00682805
5cccf5bee2705c193282059e,21.10861111,-101.6886111,76,T21,T21,47,5cccf5bee2705c193282059e,21.10861111,-101.6886111,76,T21,T21,47,5ccced0fe2705c1932779ec0,Leon,2018-01-30T00:00:00.000Z,76,1/30/18,0,76SO218013000,SO2,Guanajuato,1,0.004654,0.00747655
5cccf5bee2705c193282059f,20.57861111,-101.1988889,77,Cruz roja,CR,48,5cccf5bee2705c193282059f,20.57861111,-101.1988889,77,Cruz roja,CR,48,5ccced16e2705c1932786900,Salamanca,2018-01-30T00:00:00.000Z,77,1/30/18,0,77SO218013000,SO2,Guanajuato,1,0.065968,0.02135605
5cccf5bee2705c19328205a0,20.55805556,-101.2047222,78,DIF,DIF,48,5cccf5bee2705c19328205a0,20.55805556,-101.2047222,78,DIF,DIF,48,5ccced1ee2705c1932793e35,Salamanca,2018-01-30T00:00:00.000Z,78,1/30/18,0,78SO218013000,SO2,Guanajuato,1,0.0056482,0.0201176
5cccf5bee2705c19328205a1,20.565,-101.1880556,79,Nativitas,NAT,48,5cccf5bee2705c19328205a1,20.565,-101.1880556,79,Nativitas,NAT,48,5ccced23e2705c193279ce79,Salamanca,2018-01-30T00:00:00.000Z,79,1/30/18,0,79SO218013000,SO2,Guanajuato,1,0.001212,0.01937055
5cccf5bee2705c19328205a2,20.94777778,-101.4258333,80,Hospital General,HG,49,5cccf5bee2705c19328205a2,20.94777778,-101.4258333,80,Hospital General,HG,49,5ccced28e2705c19327a6a55,Silao,2018-01-30T00:00:00.000Z,80,1/30/18,0,80SO218013000,SO2,Guanajuato,1,0.0034672,0.01907385
5cccf5bee2705c19328205a3,20.06,-99.22194444,82,Centro de Salud,ATI,51,5cccf5bee2705c19328205a3,20.06,-99.22194444,82,Centro de Salud,ATI,51,5ccced2fe2705c19327b338b,Atitalaquia,2018-01-30T00:00:00.000Z,82,1/30/18,0,82SO218013000,SO2,Hidalgo,1,0.001705759,0.00300829
5cccf5bee2705c19328205a4,20.00666667,-99.21888889,83,Primaria Revolucion,ATO,52,5cccf5bee2705c19328205a4,20.00666667,-99.21888889,83,Primaria Revolucion,ATO,52,5ccced37e2705c19327bfa1f,Atotonilco,2018-01-30T00:00:00.000Z,83,1/30/18,0,83SO218013000,SO2,Hidalgo,1,0.002239656,0.002156154
5cccf5bee2705c19328205a5,19.77169444,-98.57769444,84,Estacion de Bomberos de Cd. Sahagon,TEP,53,5cccf5bee2705c19328205a5,19.77169444,-98.57769444,84,Estacion de Bomberos de Cd. Sahagon,TEP,53,5ccced3ee2705c19327cbe82,Tepeapulco,2018-01-30T00:00:00.000Z,84,1/30/18,0,84SO218013000,SO2,Hidalgo,1,0.001,0.002103154
5cccf5bee2705c19328205a6,20.37511111,-99.65444444,85,Hospital,HUI,54,5cccf5bee2705c19328205a6,20.37511111,-99.65444444,85,Hospital,HUI,54,5ccced47e2705c19327d98c9,Huichapan,2018-01-30T00:00:00.000Z,85,1/30/18,0,85SO218013000,SO2,Hidalgo,1,0.000319356,0.001316193
5cccf5bee2705c19328205a7,20.50555556,-99.58027778,87,Primaria Melchor Ocampo,TPJ,56,5cccf5bee2705c19328205a7,20.50555556,-99.58027778,87,Primaria Melchor Ocampo,TPJ,56,5ccced4fe2705c19327e6ed4,Tepeji,2018-01-30T00:00:00.000Z,87,1/30/18,0,87SO218013000,SO2,Hidalgo,1,0.007601715,0.002790182
5cccf5bee2705c19328205a8,20.05377778,-99.34005556,90,Centro de Salud,CSA,58,5cccf5bee2705c19328205a8,20.05377778,-99.34005556,90,Centro de Salud,CSA,58,5ccced55e2705c19327f2709,Tula,2018-01-30T00:00:00.000Z,90,1/30/18,0,90SO218013000,SO2,Hidalgo,1,0.001025141,0.002486553
5cccf5bee2705c19328205aa,20.07722222,-98.77797222,93,Museo del Rehilete,REH,59,5cccf5bee2705c19328205aa,20.07722222,-98.77797222,93,Museo del Rehilete,REH,59,5ccced64e2705c193280d6a7,Pachuca,2018-01-30T00:00:00.000Z,93,1/30/18,0,93SO218013000,SO2,Hidalgo,1,0.002749799,0.002924003
5cccf5bee2705c19328205ab,19.84058333,-98.98133333,96,Biblioteca,TIZ,60,5cccf5bee2705c19328205ab,19.84058333,-98.98133333,96,Biblioteca,TIZ,60,5ccced6ce2705c1932819c42,Tizayuca,2018-01-30T00:00:00.000Z,96,1/30/18,0,96SO218013000,SO2,Hidalgo,1,0.002865978,0.003560658
5cccf5bee2705c19328205ad,20.67376472,-103.3333361,102,Centro ,CEN,63,5cccf5bee2705c19328205ad,20.67376472,-103.3333361,102,Centro ,CEN,63,5cccead0e2705c193235184c,Guadalajara,2018-01-30T00:00:00.000Z,102,1/30/18,0,102SO218013000,SO2,Jalisco,1,0.0011052,0.00193653
5cccf5bee2705c19328205b1,20.61444444,-103.3433333,106,Miravalle,MIR,63,5cccf5bee2705c19328205b1,20.61444444,-103.3433333,106,Miravalle,MIR,63,5ccceae7e2705c193237976c,Guadalajara,2018-01-30T00:00:00.000Z,106,1/30/18,0,106SO218013000,SO2,Jalisco,1,0.0012471,0.001992019
5cccf5bee2705c19328205b2,20.70053861,-103.2966167,107,Oblatos,OBL,63,5cccf5bee2705c19328205b2,20.70053861,-103.2966167,107,Oblatos,OBL,63,5ccceaede2705c19323841b8,Guadalajara,2018-01-30T00:00:00.000Z,107,1/30/18,0,107SO218013000,SO2,Jalisco,1,0.0020604,0.001819669
5cccf5bee2705c19328205b3,20.52914944,-103.3771794,108,Santa Fe,SFE,63,5cccf5bee2705c19328205b3,20.52914944,-103.3771794,108,Santa Fe,SFE,63,5ccceaf4e2705c19323916ea,Guadalajara,2018-01-30T00:00:00.000Z,108,1/30/18,0,108SO218013000,SO2,Jalisco,1,0.0016877,0.0015251
5cccf5bee2705c19328205b4,20.64096667,-103.3125919,109,Tlaquepaque,TLA,63,5cccf5bee2705c19328205b4,20.64096667,-103.3125919,109,Tlaquepaque,TLA,63,5ccceaf9e2705c193239ba71,Guadalajara,2018-01-30T00:00:00.000Z,109,1/30/18,0,109SO218013000,SO2,Jalisco,1,0.0013802,0.00159385
5cccf5bee2705c19328205b5,20.68019306,-103.3985514,110,Vallarta,VAL,63,5cccf5bee2705c19328205b5,20.68019306,-103.3985514,110,Vallarta,VAL,63,5ccceafee2705c19323a7553,Guadalajara,2018-01-30T00:00:00.000Z,110,1/30/18,0,110SO218013000,SO2,Jalisco,1,0.0021786,0.001826725
5cccf5bee2705c19328205bb,19.26030556,-99.64572222,123,Ceboruco,CB,65,5cccf5bee2705c19328205bb,19.26030556,-99.64572222,123,Ceboruco,CB,65,5ccceb04e2705c19323b333e,Toluca,2018-01-30T00:00:00.000Z,123,1/30/18,0,123SO218013000,SO2,Mexico,1,0.005,0.002561625
5cccf5bee2705c19328205bc,19.27808333,-99.65641667,124,Toluca Centro,CE,65,5cccf5bee2705c19328205bc,19.27808333,-99.65641667,124,Toluca Centro,CE,65,5ccceb0be2705c19323c1488,Toluca,2018-01-30T00:00:00.000Z,124,1/30/18,0,124SO218013000,SO2,Mexico,1,0.004,0.0031397
5cccf5bee2705c19328205bd,19.27019444,-99.59519444,125,Metepec,MT,65,5cccf5bee2705c19328205bd,19.27019444,-99.59519444,125,Metepec,MT,65,5ccceb12e2705c19323cff05,Toluca,2018-01-30T00:00:00.000Z,125,1/30/18,0,125SO218013000,SO2,Mexico,1,0.004,0.00379465
5cccf5bee2705c19328205be,19.28344444,-99.68348889,126,Oxtotitlan,OX,65,5cccf5bee2705c19328205be,19.28344444,-99.68348889,126,Oxtotitlan,OX,65,5ccceb18e2705c19323dcc4c,Toluca,2018-01-30T00:00:00.000Z,126,1/30/18,0,126SO218013000,SO2,Mexico,1,0.003,0.004
5cccf5bee2705c19328205c0,19.28041667,-99.54166667,128,San Mateo Atenco,SM,65,5cccf5bee2705c19328205c0,19.28041667,-99.54166667,128,San Mateo Atenco,SM,65,5ccceb26e2705c19323f6a58,Toluca,2018-01-30T00:00:00.000Z,128,1/30/18,0,128SO218013000,SO2,Mexico,1,0.004,0.00375
5cccf5bee2705c19328205c5,18.92181778,-99.23489667,134,Cuernavaca 01,PGO,69,5cccf5bee2705c19328205c5,18.92181778,-99.23489667,134,Cuernavaca 01,PGO,69,5ccceb33e2705c193240fd1b,Cuernavaca,2018-01-30T00:00:00.000Z,134,1/30/18,0,134SO218013000,SO2,Morelos,1,-0.000118547,0.002720363
5cccf5bee2705c19328205ca,25.75694444,-100.3658333,140,San Bernabe,NO,72,5cccf5bee2705c19328205ca,25.75694444,-100.3658333,140,San Bernabe,NO,72,5ccceb4de2705c193243ecd0,Monterrey,2018-01-30T00:00:00.000Z,140,1/30/18,0,140SO218013000,SO2,Nuevo Leon,1,0.0085,0.003845363
5cccf5bee2705c19328205cb,25.67583333,-100.3383333,141,Obispado,CE,72,5cccf5bee2705c19328205cb,25.67583333,-100.3383333,141,Obispado,CE,72,5ccceb53e2705c1932449f0e,Monterrey,2018-01-30T00:00:00.000Z,141,1/30/18,0,141SO218013000,SO2,Nuevo Leon,1,0.0015,0.003470363
5cccf5bee2705c19328205cc,25.74527778,-100.255,142,San Nicolas,NE,72,5cccf5bee2705c19328205cc,25.74527778,-100.255,142,San Nicolas,NE,72,5ccceb59e2705c19324539f6,Monterrey,2018-01-30T00:00:00.000Z,142,1/30/18,0,142SO218013000,SO2,Nuevo Leon,1,0.0116,0.005370363
5cccf5bee2705c19328205d3,16.69934028,-96.866455,160,CEDART,CED,73,5cccf5bee2705c19328205d3,16.69934028,-96.866455,160,CEDART,CED,73,5ccceb7be2705c19324913f9,Oaxaca,2018-01-30T00:00:00.000Z,160,1/30/18,0,160SO218013000,SO2,Oaxaca,1,0.0069,0.007125
5cccf5bee2705c19328205d6,19.06272222,-98.22452778,163,Benemerito Instituto Normal del Estado,BINE,74,5cccf5bee2705c19328205d6,19.06272222,-98.22452778,163,Benemerito Instituto Normal del Estado,BINE,74,5ccceb8ae2705c19324aa77c,Puebla,2018-01-30T00:00:00.000Z,163,1/30/18,0,163SO218013000,SO2,Puebla,1,5.51E-06,0.005001377
5cccf5bee2705c19328205dd,22.15125,-100.9961111,171,Industriales Potosinos Asociados,IPAC,79,5cccf5bee2705c19328205dd,22.15125,-100.9961111,171,Industriales Potosinos Asociados,IPAC,79,5ccceb90e2705c19324b6fcb,San Luis Potosi Estatal,2018-01-30T00:00:00.000Z,171,1/30/18,0,171SO218013000,SO2,San Luis Potosi,1,0.0018176,0.005080777
5cccf5bee2705c19328205df,22.17422222,-100.9930833,174,Biblioteca,BIB,79,5cccf5bee2705c19328205df,22.17422222,-100.9930833,174,Biblioteca,BIB,79,5ccceb9be2705c19324cb939,San Luis Potosi Estatal,2018-01-30T00:00:00.000Z,174,1/30/18,0,174SO218013000,SO2,San Luis Potosi,1,0.0013827,0.002526452
5cccf5bee2705c19328205e9,19.31758333,-98.23730556,220,Palacio de Gobierno,PGO,107,5cccf5bee2705c19328205e9,19.31758333,-98.23730556,220,Palacio de Gobierno,PGO,107,5ccceba5e2705c19324dd5ca,Tlaxcala,2018-01-30T00:00:00.000Z,220,1/30/18,0,220SO218013000,SO2,Tlaxcala,1,0.0002,0.000851452
5cccf5bee2705c19328205eb,19.53009444,-96.88188056,235,STPS,STP,115,5cccf5bee2705c19328205eb,19.53009444,-96.88188056,235,STPS,STP,115,5cccebafe2705c19324f3698,Xalapa,2018-01-30T00:00:00.000Z,235,1/30/18,0,235SO218013000,SO2,Veracruz,1,0.0025,0.001475075
5cccf5bee2705c19328205ec,20.97327222,-89.62481111,236,SEDUMA01,CEN,116,5cccf5bee2705c19328205ec,20.97327222,-89.62481111,236,SEDUMA01,CEN,116,5cccebb4e2705c19324fce72,Merida,2018-01-30T00:00:00.000Z,236,1/30/18,0,236SO218013000,SO2,Yucatan,1,0.927706658,0.23294734
5cccf5bee2705c19328205ed,19.63555556,-98.91222222,240,Acolman,ACO,119,5cccf5bee2705c19328205ed,19.63555556,-98.91222222,240,Acolman,ACO,119,5cccebb9e2705c1932507047,Valle de Mexico,2018-01-30T00:00:00.000Z,240,1/30/18,0,240SO218013000,SO2,Ciudad de Mexico,1,0.001,0.232851665
5cccf5bee2705c19328205ef,19.27222222,-99.20777778,242,Ajusco Medio,AJM,119,5cccf5bee2705c19328205ef,19.27222222,-99.20777778,242,Ajusco Medio,AJM,119,5cccebbfe2705c19325146ae,Valle de Mexico,2018-01-30T00:00:00.000Z,242,1/30/18,0,242SO218013000,SO2,Ciudad de Mexico,1,0.001,0.233051665
5cccf5bee2705c19328205f0,19.57722222,-99.25416667,243,Atizapan,ATI,119,5cccf5bee2705c19328205f0,19.57722222,-99.25416667,243,Atizapan,ATI,119,5cccebc4e2705c193251d3ef,Valle de Mexico,2018-01-30T00:00:00.000Z,243,1/30/18,0,243SO218013000,SO2,Ciudad de Mexico,1,0.002,0.232926665
5cccf5bee2705c19328205f2,19.32638889,-99.17611111,245,Centro de Ciencias de la Atmosfera,CCA,119,5cccf5bee2705c19328205f2,19.32638889,-99.17611111,245,Centro de Ciencias de la Atmosfera,CCA,119,5cccebcfe2705c193252ee56,Valle de Mexico,2018-01-30T00:00:00.000Z,245,1/30/18,0,245SO218013000,SO2,Ciudad de Mexico,1,0.001,0.00125
5cccf5bee2705c19328205f5,19.36555556,-99.29194444,248,Cuajimalpa,CUA,119,5cccf5bee2705c19328205f5,19.36555556,-99.29194444,248,Cuajimalpa,CUA,119,5cccebd6e2705c193253ca30,Valle de Mexico,2018-01-30T00:00:00.000Z,248,1/30/18,0,248SO218013000,SO2,Ciudad de Mexico,1,0,0.001
5cccf5bee2705c19328205f6,19.72222222,-99.19861111,249,Cuautitlan,CUT,119,5cccf5bee2705c19328205f6,19.72222222,-99.19861111,249,Cuautitlan,CUT,119,5cccebdbe2705c1932545dc2,Valle de Mexico,2018-01-30T00:00:00.000Z,249,1/30/18,0,249SO218013000,SO2,Ciudad de Mexico,1,0.001,0.001
5cccf5bee2705c19328205f8,19.41166667,-99.15222222,251,Hospital General de Mexico,HGM,119,5cccf5bee2705c19328205f8,19.41166667,-99.15222222,251,Hospital General de Mexico,HGM,119,5cccebe8e2705c193255b037,Valle de Mexico,2018-01-30T00:00:00.000Z,251,1/30/18,0,251SO218013000,SO2,Ciudad de Mexico,1,0,0.0005
5cccf5bee2705c19328205f9,19.38444444,-99.11777778,252,Iztacalco,IZT,119,5cccf5bee2705c19328205f9,19.38444444,-99.11777778,252,Iztacalco,IZT,119,5cccebece2705c1932564626,Valle de Mexico,2018-01-30T00:00:00.000Z,252,1/30/18,0,252SO218013000,SO2,Ciudad de Mexico,1,0.001,0.0005
5cccf5bee2705c19328205fa,19.535,-99.11777778,253,La Presa,LPR,119,5cccf5bee2705c19328205fa,19.535,-99.11777778,253,La Presa,LPR,119,5cccebefe2705c1932569798,Valle de Mexico,2018-01-30T00:00:00.000Z,253,1/30/18,0,253SO218013000,SO2,Ciudad de Mexico,1,0.001,0.00075
5cccf5bee2705c19328205fb,19.57888889,-99.03972222,254,Los Laureles,LLA,119,5cccf5bee2705c19328205fb,19.57888889,-99.03972222,254,Los Laureles,LLA,119,5cccebf3e2705c19325704b4,Valle de Mexico,2018-01-30T00:00:00.000Z,254,1/30/18,0,254SO218013000,SO2,Ciudad de Mexico,1,0,0.0005
5cccf5bee2705c19328205fc,19.42472222,-99.11972222,256,Merced,MER,119,5cccf5bee2705c19328205fc,19.42472222,-99.11972222,256,Merced,MER,119,5cccebf9e2705c193257ad9c,Valle de Mexico,2018-01-30T00:00:00.000Z,256,1/30/18,0,256SO218013000,SO2,Ciudad de Mexico,1,0.001,0.00075
5cccf5bee2705c19328205fd,19.46041667,-98.90286111,257,Montecillo,MON,119,5cccf5bee2705c19328205fd,19.46041667,-98.90286111,257,Montecillo,MON,119,5cccebfee2705c1932583b57,Valle de Mexico,2018-01-30T00:00:00.000Z,257,1/30/18,0,257SO218013000,SO2,Ciudad de Mexico,1,0,0.0005
5cccf5bee2705c19328205fe,19.39388889,-99.02833333,258,Nezahualcoyotl,NEZ,119,5cccf5bee2705c19328205fe,19.39388889,-99.02833333,258,Nezahualcoyotl,NEZ,119,5cccec04e2705c193258daa7,Valle de Mexico,2018-01-30T00:00:00.000Z,258,1/30/18,0,258SO218013000,SO2,Ciudad de Mexico,1,0.001,0.0005
5cccf5bee2705c19328205ff,19.32527778,-99.20416667,259,Pedregal,PED,119,5cccf5bee2705c19328205ff,19.32527778,-99.20416667,259,Pedregal,PED,119,5cccec09e2705c1932595fb4,Valle de Mexico,2018-01-30T00:00:00.000Z,259,1/30/18,0,259SO218013000,SO2,Ciudad de Mexico,1,0.001,0.00075
5cccf5bee2705c1932820600,19.53305556,-99.03055556,260,San Agustin,SAG,119,5cccf5bee2705c1932820600,19.53305556,-99.03055556,260,San Agustin,SAG,119,5cccec0fe2705c19325a2104,Valle de Mexico,2018-01-30T00:00:00.000Z,260,1/30/18,0,260SO218013000,SO2,Ciudad de Mexico,1,0.002,0.001
5cccf5bee2705c1932820601,19.3575,-99.26305556,262,Santa Fe,SFE,119,5cccf5bee2705c1932820601,19.3575,-99.26305556,262,Santa Fe,SFE,119,5cccec16e2705c19325ad03d,Valle de Mexico,2018-01-30T00:00:00.000Z,262,1/30/18,0,262SO218013000,SO2,Ciudad de Mexico,1,0,0.001
5cccf5bee2705c1932820602,19.404,-99.20272222,263,Miguel Hidalgo,MGH,119,5cccf5bee2705c1932820602,19.404,-99.20272222,263,Miguel Hidalgo,MGH,119,5cccec1de2705c19325b99b7,Valle de Mexico,2018-01-30T00:00:00.000Z,263,1/30/18,0,263SO218013000,SO2,Ciudad de Mexico,1,0,0.00075
5cccf5bee2705c1932820603,19.24666667,-99.01083333,265,Tlahuac,TAH,119,5cccf5bee2705c1932820603,19.24666667,-99.01083333,265,Tlahuac,TAH,119,5cccec21e2705c19325c11ea,Valle de Mexico,2018-01-30T00:00:00.000Z,265,1/30/18,0,265SO218013000,SO2,Ciudad de Mexico,1,0.001,0.00075
5cccf5bee2705c1932820604,19.52916667,-99.20472222,266,Tlalnepantla,TLA,119,5cccf5bee2705c1932820604,19.52916667,-99.20472222,266,Tlalnepantla,TLA,119,5cccec27e2705c19325cc264,Valle de Mexico,2018-01-30T00:00:00.000Z,266,1/30/18,0,266SO218013000,SO2,Ciudad de Mexico,1,0.003,0.001
5cccf5bee2705c1932820605,19.60277778,-99.17722222,267,Tultitlan,TLI,119,5cccf5bee2705c1932820605,19.60277778,-99.17722222,267,Tultitlan,TLI,119,5cccec2de2705c19325d51a2,Valle de Mexico,2018-01-30T00:00:00.000Z,267,1/30/18,0,267SO218013000,SO2,Ciudad de Mexico,1,0.002,0.0015
5cccf5bee2705c1932820606,19.36083333,-99.07388889,268,UAM Iztapalapa,UIZ,119,5cccf5bee2705c1932820606,19.36083333,-99.07388889,268,UAM Iztapalapa,UIZ,119,5cccec33e2705c19325deda8,Valle de Mexico,2018-01-30T00:00:00.000Z,268,1/30/18,0,268SO218013000,SO2,Ciudad de Mexico,1,0,0.0015
5cccf5bee2705c1932820607,19.30444444,-99.10388889,269,UAM Xochimilco,UAX,119,5cccf5bee2705c1932820607,19.30444444,-99.10388889,269,UAM Xochimilco,UAX,119,5cccec38e2705c19325e90f4,Valle de Mexico,2018-01-30T00:00:00.000Z,269,1/30/18,0,269SO218013000,SO2,Ciudad de Mexico,1,0.002,0.00175
5cccf5bee2705c1932820608,19.6575,-99.09666667,270,Villa de las Flores,VIF,119,5cccf5bee2705c1932820608,19.6575,-99.09666667,270,Villa de las Flores,VIF,119,5cccec3de2705c19325f38c7,Valle de Mexico,2018-01-30T00:00:00.000Z,270,1/30/18,0,270SO218013000,SO2,Ciudad de Mexico,1,0,0.001
5cccf5bee2705c1932820609,19.52611111,-99.0825,271,Xalostoc,XAL,119,5cccf5bee2705c1932820609,19.52611111,-99.0825,271,Xalostoc,XAL,119,5cccec43e2705c19325ff69b,Valle de Mexico,2018-01-30T00:00:00.000Z,271,1/30/18,0,271SO218013000,SO2,Ciudad de Mexico,1,0.001,0.00075
5cccf5bee2705c193282060a,20.50897222,-97.44698611,291,Universidad Veracruzana,PR-03,120,5cccf5bee2705c193282060a,20.50897222,-97.44698611,291,Universidad Veracruzana,PR-03,120,5cccec4ae2705c193260cedf,Poza Rica,2018-01-30T00:00:00.000Z,291,1/30/18,0,291SO218013000,SO2,Veracruz,1,0.0046,0.0019
5cccf5bee2705c193282060b,20.08525,-98.36663889,292,Tulancingo,TLN,121,5cccf5bee2705c193282060b,20.08525,-98.36663889,292,Tulancingo,TLN,121,5cccec52e2705c193261ac21,Tulancingo,2018-01-30T00:00:00.000Z,292,1/30/18,0,292SO218013000,SO2,Hidalgo,1,0.002767781,0.002091945
5cccf5bee2705c193282060e,17.09466667,-96.75216667,297,Casa Hogar,CHO,73,5cccf5bee2705c193282060e,17.09466667,-96.75216667,297,Casa Hogar,CHO,73,5cccec56e2705c1932623fc9,Oaxaca,2018-01-30T00:00:00.000Z,297,1/30/18,0,297SO218013000,SO2,Oaxaca,1,0.0005,0.002216945
5cccf5bee2705c193282060f,19.19916667,-99.01083333,299,Milpa Alta,MPA,119,5cccf5bee2705c193282060f,19.19916667,-99.01083333,299,Milpa Alta,MPA,119,5cccec59e2705c1932629b0a,Valle de Mexico,2018-01-30T00:00:00.000Z,299,1/30/18,0,299SO218013000,SO2,Ciudad de Mexico,1,0.001,0.002216945
5cccf5bee2705c1932820611,19.29222222,-99.38055556,301,Instituto Nacional de Investigaciones Nucleares,INN,119,5cccf5bee2705c1932820611,19.29222222,-99.38055556,301,Instituto Nacional de Investigaciones Nucleares,INN,119,5cccec63e2705c193263b999,Valle de Mexico,2018-01-30T00:00:00.000Z,301,1/30/18,0,301SO218013000,SO2,Ciudad de Mexico,1,0.001,0.001316945
5cccf5bee2705c1932820613,21.903,-102.2846111,303,Instituto Educativo,IED,30,5cccf5bee2705c1932820613,21.903,-102.2846111,303,Instituto Educativo,IED,30,5cccec6ae2705c1932647ac5,Aguascalientes,2018-01-30T00:00:00.000Z,303,1/30/18,0,303SO218013000,SO2,Aguascalientes,1,8.64E-05,0.000646607
5cccf5bee2705c1932820614,25.42147222,-100.9968611,304,Finanzas,FIN,123,5cccf5bee2705c1932820614,25.42147222,-100.9968611,304,Finanzas,FIN,123,5cccec70e2705c19326536e4,Saltillo,2018-01-30T00:00:00.000Z,304,1/30/18,0,304SO218013000,SO2,Coahuila,1,0.00020211,0.000572135
5cccf5bee2705c1932820616,28.70766667,-100.5265,306,Centro de Rehabilitacion DIF,DIF,125,5cccf5bee2705c1932820616,28.70766667,-100.5265,306,Centro de Rehabilitacion DIF,DIF,125,5cccec7ce2705c193266cdfd,Piedras Negras,2018-01-30T00:00:00.000Z,306,1/30/18,0,306SO218013000,SO2,Coahuila,1,0.0016092,0.000724435
5cccf5bee2705c1932820632,25.73,-100.3097222,425,Universidad,N2,72,5cccf5bee2705c1932820632,25.73,-100.3097222,425,Universidad,N2,72,5ccceca6e2705c19326bf5e9,Monterrey,2018-01-30T00:00:00.000Z,425,1/30/18,0,425SO218013000,SO2,Nuevo Leon,1,0.0035,0.001349435